[
    {
        "id": 1767342870175,
        "name": "Sapporo TV Tower",
        "city": "Sapporo",
        "day": "Day 3",
        "price": "ผู้ใหญ่ 1,000 เยน",
        "time": "12.00",
        "lat": 43.063565588148776,
        "lng": 141.3663839480147
    },
    {
        "id": 1767342936781,
        "name": "Maruyama Park",
        "city": "Maruyama Park",
        "day": "Day 3",
        "price": "ค่าเข้าชมสวนสัตว์ 800 เยน",
        "time": "14.00",
        "lat": 43.05537440139969,
        "lng": 141.31167616649807,
        "note": "บริเวณนี้มีทั้งสวน มี Maruyama Summit และมีสวนสัตว์ด้วย น่าจะ Hangout ที่นี่ได้ซัก 2 ชั่วโมงสบายๆ \n\nสวนสัตว์ปิด 4 โมง\n\nบริเวณนั้นมีศาลเจ้าฮอกไกโดจิงกู (Hokkaido Jingu Shrine) ที่อยู่ติดกันสำหรับการขอพร"
    },
    {
        "id": 1767343010736,
        "name": "Hokkaido Shrine",
        "city": "Sapporo",
        "day": "Day 3",
        "price": "Free Entrance",
        "time": "15.00",
        "lat": 43.05584588578311,
        "lng": 141.3104425023919,
        "note": "เวลาเปิดปิด คือ 06:00 - 17:00 \n(เวลาศาลเจ้าเปลี่ยนตามฤดูกาล)"
    },
    {
        "id": 1767407493978,
        "name": "Hokkaido University and Odori Park",
        "city": "Sapporo",
        "day": "Day 3",
        "time": "13.00",
        "price": "ฟรี",
        "note": "Hokkaido University กับ Odori park อยู่บริเวณเดียวกัน\n",
        "lat": 43.07952673895163,
        "lng": 141.34018167552153
    },
    {
        "id": 1767407713023,
        "name": "Tanukikoji Shopping Street",
        "city": "Sapporo",
        "day": "Day 5",
        "time": "18.00",
        "price": "Free",
        "note": "หากยังไม่อยากกลับที่พัก ก็สามารถไปเดินเที่ยว Tanukikoji Shopping Street ได้ อยู่ติดกับ Hokkaido TV Tower เลย",
        "lat": 43.06311828683909,
        "lng": 141.3645830896761
    },
    {
        "id": 1767407795056,
        "name": "Mount Moiwa (Ropeway)",
        "city": "Sapporo",
        "day": "Day 5",
        "time": "16.00",
        "price": "ไป-กลับ 2,100 เยน",
        "note": "นั่งรถรางในเมือง Sapporo มาลง ที่สถานี Ropeway Iriguchi (200 เยน) จากนั้น ก็เดินไปยังป้ายรถ Shuttle Bus รับ-ส่ง ไป สถานี Sanroku ซึ่งเป็นสถานีกระเช้า Ropeway ด้านล่าง(บริการฟรี) หรือ ถ้าใครไม่อยากรอจะเดินไปเองก็ได้ ใช้เวลาเดินประมาณ 10 นาที\n\nเวลาเปิด ปิด 10:30 - 22:00\n\nไฮไลท์ ของที่นี่ คือ “ระฆังแห่งความสุข” สัญลักษณ์ของ Mt.Moiwa จุดถ่ายรูปยอดนิยม ที่ใครมาแล้วต้องไม่พลาดมาถ่ายรูป พร้อมกับตีระฆัง อธิษฐานให้ชีวิตพบแต่ความสุข และยังสามารถแขวน “แม่กุญแจแห่งความรัก” ที่ราวรอบๆ บริเวณนี้ได้อีกด้วย",
        "lat": 43.02802144854445,
        "lng": 141.33775110807355
    },
    {
        "id": 1767407951088,
        "name": "Hill of the Buddha",
        "city": "Sapporo",
        "day": "Day 5",
        "time": "11.00 - 13.00",
        "price": "300 เยน",
        "note": "อยู่ Sapporo แต่ไกลจากตัวเมือง เดือนพฤศจิกายน - มีนาคม: เปิดเวลา 10:00 - 15:00 น. \n\nหลังจากมาถึง สามารถเดินชมบริเวณรอบๆ ได้ ถึงเวลา 12.45 เพื่อขึ้นรถรอบ 13.00 น. กลับมาที่ Makomanai station ถ้าพลาดรอบนี้ไม่เป็นไร มีรถอื่นๆ อื่ก",
        "lat": 42.8978884213536,
        "lng": 141.3448184631947
    },
    {
        "id": 1767408060535,
        "name": "Shiroi Koibito Park",
        "city": "Sapporo",
        "day": "Day 5",
        "time": "15.00",
        "price": "800 เยน (โซนโรงงาน)",
        "note": "เวลาเปิด-ปิด 10:00 - 17:00",
        "lat": 43.088677791119544,
        "lng": 141.2715297533979
    },
    {
        "id": 1767408149759,
        "name": "Otaru Canal",
        "city": "Otaru",
        "day": "Day 4",
        "time": "14.00",
        "price": "ฟรี",
        "note": "เปิดตลอด 24 ชม. \n(เปิดไฟช่วงเย็น-21:00)",
        "lat": 43.196652483171704,
        "lng": 141.00424888717913
    },
    {
        "id": 1767408252059,
        "name": "Tenguyama Ropeway",
        "city": "Otaru",
        "day": "Day 4",
        "time": "11.30",
        "price": "ไป-กลับ 1,600 - 1,800 เยน",
        "note": "เวลาเปิด-ปิด 09:00 - 21:00 นั่ง Ropeway แค่ 4 นาที แต่ข้างบนเขาเดินเล่นถ่ายรูปได้ แล้วค่อยนั่ง Ropeway กลับลงมา",
        "lat": 43.16931054060479,
        "lng": 140.96940092616666
    },
    {
        "id": 1767408329621,
        "name": "Asari Station",
        "city": "Otaru",
        "day": "Day 4",
        "time": "17.00",
        "price": "Free",
        "note": "สถานีรถไฟริมทะเล (จุดถ่ายรูปยอดนิยม)\n\nเที่ยวตรงนี้เสร็จแล้วก็นั่งรถไฟสายหลักฮาโกดาเตะ (Hakodate Main Line) จากสถานีอาซาริ (Asari Station) กลับ Sapporo ได้เลย",
        "lat": 43.17651752255198,
        "lng": 141.0646454385576
    },
    {
        "id": 1767408563761,
        "name": "Asahidake Ropeway (Daisetsuzan)",
        "city": "Asahikawa",
        "day": "Day 2",
        "time": "11.00 - 15.30",
        "price": "2400 เยน",
        "note": " JR Asahikawa Station – Ropeway Station นั่งรถบัส ที่ป้ายหน้าสถานีรถไฟ สาย 66 (ราคา 1,800 เยน/เที่ยว) ใช้เวลาเดินทางประมาณ 1 ชั่วโมง 30 นาที\n\nเวลาเปิด - ปิด \n09:00 - 16:00 (เวลาเปลี่ยนตามสภาพอากาศ)\n\nโดยทั่วไปจะออกทุกๆ 15-20 นาที และใช้เวลาในการขึ้นสู่ยอดเขาประมาณ 10 นาที (หรืออาจนานถึง 15 นาที) ขึ้นอยู่กับสภาพอากาศและช่วงเวลา. ",
        "lat": 43.671650192145215,
        "lng": 142.8728519545833
    },
    {
        "id": 1767409386206,
        "name": "Shirahige Waterfall",
        "city": "Biei",
        "day": "Day 1",
        "time": "14.00",
        "price": "Free",
        "note": "เปิดตลอด 24 ชม. \n(เปิดไฟประดับช่วงกลางคืน)\n\nจาก Blue Pond มีรถไปน้ำตก \n\nถ้าเป็นไปได้ มาให้ทันรถไปน้ำตกรอบ 14.07 ใช้เวลาเดินทาง 5 นาที\n\nเดินเล่นที่น้ำตก ถ่ายรูป 1 ชั่วโมงและมาให้ทันรถกลับไป Biei Station ช่วงประมาณ บ่าย 3 เพื่อนั่งรถไฟต่อไป Furano ใช้เวลาประมาณ 40 นาที\n\n",
        "lat": 43.475274641617425,
        "lng": 142.63850521055258
    },
    {
        "id": 1767409483953,
        "name": "Ningle Terrace",
        "city": "Furano",
        "day": "Day 1",
        "time": "16.30",
        "price": "Free",
        "note": "**ถ้าเหนื่อยไปตัด Furano ออกมั้ย เพราะลงไปเที่ยวได้ที่เดียวแล้วต้องกลับ Asahikawa เลย เพราะค่ำแล้ว*\n\nเวลาเปิด-ปิด 12:00 - 20:45\n\n*ตอนนี้ยังไม่แน่ใจเรื่องการเดินทางจาก Furano Station to Ningle Terrace มันมีบัส นั่งไม่นาน แต่รอบนาน และใช้เวลาประมาณ 30 นาที\n\nเที่ยวเสร็จ กลับมาที่สถานี Furano เพื่อนั่งรถกลับ Asahikawa",
        "lat": 43.32355203505857,
        "lng": 142.35595204493117
    },
    {
        "id": 1767409621239,
        "name": "Noboribetsu Jigokudani",
        "city": "Noboribetsu",
        "day": "Day 6",
        "time": "13.00",
        "price": "Free",
        "note": "ซื้อทัวร์ One Day Trip\nเที่ยวหุบเขานรก (Jigokudani) เดินชมวิวและถ่ายรูป\n\nเปิดตลอด 24 ชม. (ทางเดินไม้เปิดไฟถึง 23:00)",
        "lat": 42.49713131175182,
        "lng": 141.14605960638926
    },
    {
        "id": 1767410797675,
        "name": "New Chitose Airport",
        "city": "New Chitose",
        "day": "Day 1",
        "time": "08.30",
        "price": "Free",
        "note": "มีรถบัส มีรถไฟ ขึ้นลงจากสนามบิน ไปลง Asahikawa ",
        "lat": 42.79173083239165,
        "lng": 141.66373654108216
    },
    {
        "id": 1767410932225,
        "name": "Wyndham Garden Sapporo Odori",
        "city": "Sapporo",
        "day": "Day 3",
        "time": "11.00",
        "price": "1600 บาท/ คืน",
        "note": "เราจะพักกันที่นี่ Check in ฝากกระเป๋า กินข้าวเที่ยง",
        "lat": 43.0580855697361,
        "lng": 141.34650741558377
    },
    {
        "id": 1767411750684,
        "name": "Hotel Wing International Asahikawa Ekimae",
        "city": "Asahikawa",
        "day": "Day 1",
        "time": "10.00",
        "price": "1200 บาท/ คืน",
        "note": "นั่งรถทัวร๋ที่สถาน Asahikawa รอบ 11.00 ",
        "lat": 43.766242438061305,
        "lng": 142.35305266211157
    },
    {
        "id": 1767412808555,
        "name": "Hotel Wing International Asahikawa Ekimae",
        "city": "Asahikawa",
        "day": "Day 1",
        "time": "18.00 - 20.00",
        "price": "1200 บาท/คืน",
        "note": "หลังจากกินอาหารเย็น กลับเข้าโรงแรมพักผ่อน\n",
        "lat": 43.76624023609272,
        "lng": 142.3541626203254
    },
    {
        "id": 1767413080453,
        "name": "Hotel Wing International Asahikawa Ekimae",
        "city": "Asahikawa",
        "day": "Day 2",
        "time": "09.00",
        "price": "",
        "note": "ตื่นมารีบไปขึ้นรถบัสเพื่อขึ้นเขาเลย ให้ทันรอบ 09.00",
        "lat": 43.766063729031714,
        "lng": 142.35363590222187
    },
    {
        "id": 1767413765492,
        "name": "Shirogane Blue Pond (Aoiike)",
        "city": "Biei",
        "day": "Day 1",
        "time": "11.00",
        "price": "Free",
        "note": "จากสถานี Biei น่าจะทันรถบัสสาย 39 หรือ 42 \nเวลาประมาณนี้\n\nรอบ 11.05 - 11.27\nรอบ 11.54 - 12.16 (น่าจะโอเคไม่ต้องรีบมาก)",
        "lat": 43.498751823020264,
        "lng": 142.6131004717333
    },
    {
        "id": 1767414057142,
        "name": "JR Asahikawa",
        "city": "Asahikawa",
        "day": "Day 3",
        "time": "08.30",
        "price": "",
        "note": "Check Out และเดินทางออกจาก Asahikawa ไป Sapporo\n\nรถไฟ JR จากอาซาฮิคาวะ (Asahikawa) ไปซัปโปโร (Sapporo) ใช้เวลาประมาณ 1 ชั่วโมง 25 นาที ถึง 1 ชั่วโมง 30 นาที โดยเป็นรถไฟด่วน (Rapid) ที่ตรงเวลาและรวดเร็วที่สุด ประมาณ 1 ชั่วโมง 25 นาที และมีราคาค่าโดยสารประมาณ 4,000 - 5,500 เยน (ขึ้นอยู่กับประเภทที่นั่งและประเภทรถไฟ)",
        "lat": 43.765630534248864,
        "lng": 142.34987569362002
    },
    {
        "id": 1767415465590,
        "name": "JR Asahikawa",
        "city": "Asahikawa",
        "day": "Day 2",
        "time": "09.00",
        "price": "",
        "note": "ขึ้นรถบัสรอบ 09.15 ไปถึง ภูเขา Asahidake เวลา 11.03",
        "lat": 43.765851861774074,
        "lng": 142.3506208814531
    },
    {
        "id": 1767415882306,
        "name": "Hotel Wing International Asahikawa Ekimae",
        "city": "Asahikawa ",
        "day": "Day 2",
        "time": "17.00",
        "price": "",
        "note": "หาอาหารกินในเมือง และนอน Asahikawa อีกคืน\n",
        "lat": 43.766087741514745,
        "lng": 142.3539616684259
    },
    {
        "id": 1767501117133,
        "name": "Wyndham Garden Sapporo Odori",
        "city": "Sapporo",
        "day": "Day 3",
        "time": "18.00",
        "price": "-",
        "note": "เดินเล่นใน Sapporo ทานข้าวเย็น และกลับมาพักที่โรงแรม",
        "lat": 43.05797548344976,
        "lng": 141.3469274714232
    },
    {
        "id": 1767501296341,
        "name": "Sapporo Station",
        "city": "Sapporo",
        "day": "Day 4",
        "time": "09.00",
        "price": "ค่าโดยสาร 750 เยน",
        "note": "นั่งรถไฟ JR จาก Sapporo Station ไปยัง Otaru Station ใช้เวลา 32-41 นาที",
        "lat": 43.067065721488184,
        "lng": 141.34401918186416
    },
    {
        "id": 1767501483105,
        "name": "Otaru Music Box Museum",
        "city": "Otaru",
        "day": "Day 4",
        "time": "13.30",
        "price": "เข้าชมฟรี",
        "note": "เปิดทำการเวลา 09:00 - 18:00 น.",
        "lat": 43.19613436235336,
        "lng": 141.00429607114435
    },
    {
        "id": 1767501667733,
        "name": "JR Otaru Station",
        "city": "Otaru",
        "day": "Day 4",
        "time": "10.00",
        "price": "-",
        "note": "เดินทางถึง Otaru",
        "lat": 43.19749519117656,
        "lng": 140.99330260210243
    },
    {
        "id": 1767501733738,
        "name": "Sankaku Fish Market",
        "city": "Otaru",
        "day": "Day 4",
        "time": "10.30",
        "price": "-",
        "note": "ตลาดปลา Sankaku หาอาหารกินก่อนเดินทางเที่ยว Otaru\n\nตลาดอยู่ติดสถานี JR Otaru \nตลาดเปิด 08.00 น. - 17.00 น.",
        "lat": 43.19746372727528,
        "lng": 140.9938005412974
    },
    {
        "id": 1767502069128,
        "name": "JR Otaru Station",
        "city": "Otaru",
        "day": "Day 4",
        "time": "16.00",
        "price": "",
        "note": "นั่ง JR Hakodate Main Line จากสถานี Asari Station ",
        "lat": 43.19735439559546,
        "lng": 140.99355890409825
    },
    {
        "id": 1767503374890,
        "name": "Wyndham Garden Sapporo Odori",
        "city": "Sapporo",
        "day": "Day 4",
        "time": "18.00",
        "price": "",
        "note": "จาก Otaru เดินทางกลับ Sapporo รับประทานอาหารเย็นและกลับเข้าพักที่ รร.",
        "lat": 43.0579495788635,
        "lng": 141.34646371255994
    },
    {
        "id": 1767504162145,
        "name": "JR Asahikawa",
        "city": "Asahikawa",
        "day": "Day 1",
        "time": "10.30",
        "price": "",
        "note": "นั่งรถไฟ Furano Line ไปลง Biei Station ใช้เวลาประมาณ 30 นาที\n\nต่อรถบัสป้ายหน้าสถานีรถไฟ (สาย 39, 42) เพื่อไปยังจุดท่องเที่ยว “บึงน้ำสีฟ้า” และ “น้ำตกสีฟ้า” ซึ่งจะอยู่ในเส้นทางเดียวกัน",
        "lat": 43.76560456726083,
        "lng": 142.35101103888442
    },
    {
        "id": 1767505748991,
        "name": "Ropeway Station",
        "city": "Mount Asahidake",
        "day": "Day 2",
        "time": "15.15",
        "price": "1800 เยน",
        "note": "ลงจากเขากลับมาที่ Ropeway Station เพื่อนั่งรถบัสรอบ 15.40 กลับ Asahidake (รถบัสรอบสุดท้าย สายกว่านี้ไม่ได้แล้ว)",
        "lat": 43.66261697846261,
        "lng": 142.8517391928342
    },
    {
        "id": 1767506016574,
        "name": "Wyndham Garden Sapporo Odori",
        "city": "Sapporo",
        "day": "Day 5",
        "time": "08.30",
        "price": "",
        "note": "จากสถานีซัปโปโร (Sapporo Station) ขึ้นรถไฟ สายนัมโบคุ (Namboku Line) ไปยัง สถานีมาโกะมะนาอิ (Makomanai Station) ต่อ รถบัสสาย Sapporo Chuo Bus หมายเลข 108 จากป้ายหมายเลข 2 เพื่อไปยังสุสาน Makomanai Takino\n\nพยายามมาให้ทันรอบรถ 10.15 เพราะรอบถัดไป 11.15 น.",
        "lat": 43.05788070738488,
        "lng": 141.34670678820774
    },
    {
        "id": 1767506852801,
        "name": "Wyndham Garden Sapporo Odori",
        "city": "Sapporo",
        "day": "Day 5",
        "time": "18.00",
        "price": "-",
        "note": "กลับจากเขา Moiwa รับประทานอาหารเย็น และกลับเข้าที่พัก",
        "lat": 43.057833844170865,
        "lng": 141.34655731046516
    },
    {
        "id": 1767507006636,
        "name": "Wyndham Garden Sapporo Odori",
        "city": "Sapporo ",
        "day": "Day 6",
        "time": "08.30",
        "price": "-",
        "note": "รับประทานอาหารเช้า และ Check Out ออกจากโรงแรม",
        "lat": 43.0578728598221,
        "lng": 141.3469104258415
    },
    {
        "id": 1767507262606,
        "name": "Sapporo Station",
        "city": "ซื้อทัวร์ 1 Day Trip ไป Noboribetsu - Toya",
        "day": "Day 6",
        "time": "09.00",
        "price": "- ",
        "note": "One Day Trip จาก Klook \n\nเริ่ม - Sapporo \nไป Kyogoku Fukidashi Park\nLake Toya Observation Deck\nNoboribetsu\nLake Hill Farm\nBear Park\nJigokudani (Hell Valley)\n\nกลับมาส่งที่ Hokkaido ราคา 1800 บาท/คน (57.25 USD) \n",
        "lat": 43.06671790588046,
        "lng": 141.34528947995673
    },
    {
        "id": 1768013229623,
        "name": "Sapporo Station",
        "city": "Sapporo",
        "day": "Day 6",
        "time": "19.00",
        "price": "",
        "note": "ทัวร์พากลับมาส่งที่ Sapporo",
        "lat": 43.06676118392731,
        "lng": 141.34470181029522
    },
    {
        "id": 1768013310008,
        "name": "Lake Toya",
        "city": "Toya",
        "day": "Day 6",
        "time": "11.00",
        "price": "",
        "note": "ซื้อทัวร์ One Day Trip\n",
        "lat": 42.568961069204605,
        "lng": 140.79776589951646
    },
    {
        "id": 1768013386289,
        "name": "Wyndham Garden Sapporo Odori",
        "city": "Sapporo",
        "day": "Day 6",
        "time": "20.00",
        "price": "",
        "note": "หลังจากเที่ยวกับทัวร์ กลับมานอนโรงแรมที่ Sapporo\n\n",
        "lat": 43.058286535472035,
        "lng": 141.3476233059007
    },
    {
        "id": 1768013511403,
        "name": "Sapporo - Free Day",
        "city": "Sapporo",
        "day": "Day 7",
        "time": "09.00 - 18.00",
        "price": "",
        "note": "อยากเที่ยว Sapporo อีกคืนมั้ย แล้วกลับ วันที่ 14",
        "lat": 43.06198387559044,
        "lng": 141.35197802439177
    },
    {
        "id": 1768013600997,
        "name": "Check Out - Sapporo Station",
        "city": "Sapporo",
        "day": "Day 8",
        "time": "06.00",
        "price": "",
        "note": "Check Out ออกจาก รร.\n\nนั่ง Airport Bus จาก Sapporo ไปสนามบิน",
        "lat": 43.06753670530194,
        "lng": 141.34511836326314
    },
    {
        "id": 1768013728837,
        "name": "New Chitose Aiport",
        "city": "New Chitose",
        "day": "Day 8",
        "time": "07.00",
        "price": "",
        "note": "เดินทางกลับไทยโดยสวัสดิภาพ",
        "lat": 42.79154260413473,
        "lng": 141.66041405676063
    }
]