[{"id":1767336283632,"name":"Yotei","city":"","day":"Day 3","price":"","time":"","lat":42.558683549799646,"lng":140.78704971113518},{"id":1767342684449,"name":"Odori Park","city":"","day":"Day 1","price":"Free Entrance","time":"10.00","lat":43.07818233781671,"lng":141.33910364386483},{"id":1767342870175,"name":"Sapporo TV Tower","city":"","day":"Day 1","price":"ผู้ใหญ่ 1,000 เยน","time":"12.00","lat":43.063565588148776,"lng":141.3663839480147},{"id":1767342936781,"name":"Maruyama Park","city":"Maruyama Park","day":"Day 1","price":"Free Entrance","time":"13.00","lat":43.05537440139969,"lng":141.31167616649807},{"id":1767343010736,"name":"Hokkaido Shrine","city":"Sapporo","day":"Day 1","price":"Free Entrance","time":"14.00","lat":43.05584588578311,"lng":141.3104425023919}]